{"0": {"id": 72, "name": "Kathleen Kramer", "address": "84400 Kent Square Apt. 140\nNew Francis, IA 91220", "latitude": "8.5969495", "longitude": "-145.261356"}, "1": {"id": 7, "name": "Alexis Whitehead", "address": "7004 Richardson View\nWilliamhaven, RI 49033", "latitude": "-29.460229", "longitude": "-97.997445"}, "2": {"id": 88, "name": "Sean Carpenter", "address": "091 Wilson Plains Apt. 414\nWaltonshire, PA 85696", "latitude": "-53.389300", "longitude": "100.389056"}, "3": {"id": 94, "name": "Katelyn Sanchez", "address": "5732 Kimberly Plain Suite 723\nPort Rachelside, VT 85986", "latitude": "-8.2248965", "longitude": "-23.516204"}, "4": {"id": 10, "name": "Hector Ware", "address": "671 Victoria Lodge\nWest Kelly, ND 79124", "latitude": "-80.9312185", "longitude": "125.667350"}, "5": {"id": 56, "name": "Leslie Thornton", "address": "64009 Amanda Trace Suite 114\nEast Tanyaberg, ME 26240", "latitude": "-27.5147185", "longitude": "-157.061845"}, "6": {"id": 93, "name": "Kevin Williams", "address": "962 Laura Squares Apt. 590\nLindseyside, GA 98200", "latitude": "-89.876768", "longitude": "-28.818244"}, "7": {"id": 89, "name": "Kristy Thompson", "address": "3343 Derek Village Suite 768\nBrittanyshire, MD 86234", "latitude": "-80.2931875", "longitude": "131.465589"}, "8": {"id": 47, "name": "Heidi Mcmahon", "address": "3184 David Forge Suite 490\nNew Brittanyshire, VT 79907", "latitude": "-74.2364535", "longitude": "171.035608"}, "9": {"id": 21, "name": "Jodi Martinez", "address": "Unit 0839 Box 6463\nDPO AP 63779", "latitude": "-84.1068635", "longitude": "-107.403601"}}